{
  "data": [
    {
      "id": "199931720057951",
      "name": "University Of Kansas<3",
      "link": "https://www.facebook.com/pages/University-Of-Kansas3/199931720057951",
      "location": {
        "street": "",
        "city": "Lawrence",
        "state": "KS",
        "country": "United States",
        "zip": "",
        "latitude": 38.949586533333,
        "longitude": -95.235967966667
      },
      "created_time": "2013-04-28T02:11:42+0000"
    },
    {
      "id": "162971783733693",
      "name": "Hawks Pointe Apartments",
      "link": "https://www.facebook.com/HawksPointeApts",
      "location": {
        "street": "1421 West Seventh Street ",
        "city": "Lawrence",
        "state": "KS",
        "country": "United States",
        "zip": " 66044",
        "latitude": 38.971153,
        "longitude": -95.251519
      },
      "website": "www.hawkspointeapts.com",
      "username": "HawksPointeApts",
      "phone": "785-841-5255",
      "created_time": "2013-04-28T02:11:35+0000"
    },
    {
      "id": "205083649534107",
      "name": "Oak Hill Cemetary",
      "link": "https://www.facebook.com/pages/Oak-Hill-Cemetary/205083649534107",
      "location": {
        "street": "",
        "city": "Lawrence",
        "state": "KS",
        "country": "United States",
        "zip": "",
        "latitude": 38.958893833333,
        "longitude": -95.213023766667
      },
      "created_time": "2013-04-28T02:11:31+0000"
    },
    {
      "id": "111841408852686",
      "name": "Panda and Plum Garden",
      "link": "https://www.facebook.com/pages/Panda-and-Plum-Garden/111841408852686",
      "location": {
        "street": "1500 W 6th St",
        "city": "Lawrence",
        "state": "KS",
        "country": "United States",
        "zip": "66044-1703",
        "latitude": 38.973536342168,
        "longitude": -95.252789839279
      },
      "phone": "+1 (785) 843-4312",
      "created_time": "2013-04-28T02:11:28+0000"
    },
    {
      "id": "128186220574793",
      "name": "Eagles Lodge #309",
      "link": "https://www.facebook.com/Eagles309",
      "location": {
        "street": "1803 W. 6th St.",
        "city": "Lawrence",
        "state": "KS",
        "country": "United States",
        "zip": "66044",
        "latitude": 38.972171027421,
        "longitude": -95.256349236956
      },
      "website": "http://www2.ljworld.com/marketplace/businesses/fraternal-order-eagles/",
      "username": "Eagles309",
      "phone": "785-843-9690",
      "created_time": "2013-04-28T02:11:25+0000"
    }
  ],
  "paging": {
    "next": "https://graph.facebook.com/100000767668529/likes?fields=id,name,link,location,website,username,phone&limit=5000&offset=5000&__after_id=40863347438"
  }
}
